{   
    "4":[
      {
        "stop_id": 401,
        "name": "Woodlawn",
        "lat": 40.886037,
        "lon": -73.878751,
        "parent_station": 401
      },
      {
        "stop_id": 402,
        "name": "Mosholu Pkwy",
        "lat": 40.87975,
        "lon": -73.884655,
        "parent_station": 402
      },
      {
        "stop_id": 405,
        "name": "Bedford Park Blvd-Lehman College",
        "lat": 40.873412,
        "lon": -73.890064,
        "parent_station": 405
      },
      {
        "stop_id": 406,
        "name": "Kingsbridge Rd",
        "lat": 40.86776,
        "lon": -73.897174,
        "parent_station": 406
      },
      {
        "stop_id": 407,
        "name": "Fordham Rd",
        "lat": 40.862803,
        "lon": -73.901034,
        "parent_station": 407
      },
      {
        "stop_id": 408,
        "name": "183 St",
        "lat": 40.858407,
        "lon": -73.903879,
        "parent_station": 408
      },
      {
        "stop_id": 409,
        "name": "Burnside Av",
        "lat": 40.853453,
        "lon": -73.907684,
        "parent_station": 409
      },
      {
        "stop_id": 410,
        "name": "176 St",
        "lat": 40.84848,
        "lon": -73.911794,
        "parent_station": 410
      },
      {
        "stop_id": 411,
        "name": "Mt Eden Av",
        "lat": 40.844434,
        "lon": -73.914685,
        "parent_station": 411
      },
      {
        "stop_id": 412,
        "name": "170 St",
        "lat": 40.840075,
        "lon": -73.917791,
        "parent_station": 412
      },
      {
        "stop_id": 413,
        "name": "167 St",
        "lat": 40.835537,
        "lon": -73.9214,
        "parent_station": 413
      },
      {
        "stop_id": 414,
        "name": "161 St-Yankee Stadium",
        "lat": 40.827994,
        "lon": -73.925831,
        "parent_station": 414
      },
      {
        "stop_id": 415,
        "name": "149 St-Grand Concourse",
        "lat": 40.818375,
        "lon": -73.927351,
        "parent_station": 222
      },
      {
        "stop_id": 416,
        "name": "138 St-Grand Concourse",
        "lat": 40.813224,
        "lon": -73.929849,
        "parent_station": 416
      },
      {
        "stop_id": 621,
        "name": "125 St",
        "lat": 40.804138,
        "lon": -73.937594,
        "parent_station": 621
      },
      {
        "stop_id": 626,
        "name": "86 St",
        "lat": 40.779492,
        "lon": -73.955589,
        "parent_station": 626
      },
      {
        "stop_id": 629,
        "name": "59 St",
        "lat": 40.762526,
        "lon": -73.967967,
        "parent_station": 629
      },
      {
        "stop_id": 631,
        "name": "Grand Central-42 St",
        "lat": 40.751776,
        "lon": -73.976848,
        "parent_station": 631
      },
      {
        "stop_id": 635,
        "name": "14 St-Union Sq",
        "lat": 40.734673,
        "lon": -73.989951,
        "parent_station": 635
      },
      {
        "stop_id": 640,
        "name": "Brooklyn Bridge-City Hall",
        "lat": 40.713065,
        "lon": -74.004131,
        "parent_station": 640
      },
      {
        "stop_id": 418,
        "name": "Fulton St",
        "lat": 40.710368,
        "lon": -74.009509,
        "parent_station": 229
      },
      {
        "stop_id": 419,
        "name": "Wall St",
        "lat": 40.707557,
        "lon": -74.011862,
        "parent_station": 419
      },
      {
        "stop_id": 420,
        "name": "Bowling Green",
        "lat": 40.704817,
        "lon": -74.014065,
        "parent_station": 420
      },
      {
        "stop_id": 423,
        "name": "Borough Hall",
        "lat": 40.692404,
        "lon": -73.990151,
        "parent_station": 232
      },
      {
        "stop_id": 234,
        "name": "Nevins St",
        "lat": 40.688246,
        "lon": -73.980492,
        "parent_station": 234
      },
      {
        "stop_id": 235,
        "name": "Atlantic Av-Barclays Ctr",
        "lat": 40.684359,
        "lon": -73.977666,
        "parent_station": 235
      },
      {
        "stop_id": 239,
        "name": "Franklin Av-Medgar Evers College",
        "lat": 40.670682,
        "lon": -73.958131,
        "parent_station": 239
      },
      {
        "stop_id": 250,
        "name": "Crown Hts-Utica Av",
        "lat": 40.668897,
        "lon": -73.932942,
        "parent_station": 250
      }
    ],
    "1":[
        {
          "stop_id": 101,
          "name": "Van Cortlandt Park-242 St",
          "lat": 40.889248,
          "lon": -73.898583,
          "parent_station": 101
        },
        {
          "stop_id": 103,
          "name": "238 St",
          "lat": 40.884667,
          "lon": -73.90087,
          "parent_station": 103
        },
        {
          "stop_id": 104,
          "name": "231 St",
          "lat": 40.878856,
          "lon": -73.904834,
          "parent_station": 104
        },
        {
          "stop_id": 106,
          "name": "Marble Hill-225 St",
          "lat": 40.874561,
          "lon": -73.909831,
          "parent_station": 106
        },
        {
          "stop_id": 107,
          "name": "215 St",
          "lat": 40.869444,
          "lon": -73.915279,
          "parent_station": 107
        },
        {
          "stop_id": 108,
          "name": "207 St",
          "lat": 40.864621,
          "lon": -73.918822,
          "parent_station": 108
        },
        {
          "stop_id": 109,
          "name": "Dyckman St",
          "lat": 40.860531,
          "lon": -73.925536,
          "parent_station": 109
        },
        {
          "stop_id": 110,
          "name": "191 St",
          "lat": 40.855225,
          "lon": -73.929412,
          "parent_station": 110
        },
        {
          "stop_id": 111,
          "name": "181 St",
          "lat": 40.849505,
          "lon": -73.933596,
          "parent_station": 111
        },
        {
          "stop_id": 112,
          "name": "168 St-Washington Hts",
          "lat": 40.840556,
          "lon": -73.940133,
          "parent_station": 112
        },
        {
          "stop_id": 113,
          "name": "157 St",
          "lat": 40.834041,
          "lon": -73.94489,
          "parent_station": 113
        },
        {
          "stop_id": 114,
          "name": "145 St",
          "lat": 40.826551,
          "lon": -73.95036,
          "parent_station": 114
        },
        {
          "stop_id": 115,
          "name": "137 St-City College",
          "lat": 40.822008,
          "lon": -73.953676,
          "parent_station": 115
        },
        {
          "stop_id": 116,
          "name": "125 St",
          "lat": 40.815581,
          "lon": -73.958372,
          "parent_station": 116
        },
        {
          "stop_id": 117,
          "name": "116 St-Columbia University",
          "lat": 40.807722,
          "lon": -73.96411,
          "parent_station": 117
        },
        {
          "stop_id": 118,
          "name": "Cathedral Pkwy (110 St)",
          "lat": 40.803967,
          "lon": -73.966847,
          "parent_station": 118
        },
        {
          "stop_id": 119,
          "name": "103 St",
          "lat": 40.799446,
          "lon": -73.968379,
          "parent_station": 119
        },
        {
          "stop_id": 120,
          "name": "96 St",
          "lat": 40.793919,
          "lon": -73.972323,
          "parent_station": 120
        },
        {
          "stop_id": 121,
          "name": "86 St",
          "lat": 40.788644,
          "lon": -73.976218,
          "parent_station": 121
        },
        {
          "stop_id": 122,
          "name": "79 St",
          "lat": 40.783934,
          "lon": -73.979917,
          "parent_station": 122
        },
        {
          "stop_id": 123,
          "name": "72 St",
          "lat": 40.778453,
          "lon": -73.98197,
          "parent_station": 123
        },
        {
          "stop_id": 124,
          "name": "66 St-Lincoln Center",
          "lat": 40.77344,
          "lon": -73.982209,
          "parent_station": 124
        },
        {
          "stop_id": 125,
          "name": "59 St-Columbus Circle",
          "lat": 40.768247,
          "lon": -73.981929,
          "parent_station": 125
        },
        {
          "stop_id": 126,
          "name": "50 St",
          "lat": 40.761728,
          "lon": -73.983849,
          "parent_station": 126
        },
        {
          "stop_id": 127,
          "name": "Times Sq-42 St",
          "lat": 40.75529,
          "lon": -73.987495,
          "parent_station": 127
        },
        {
          "stop_id": 128,
          "name": "34 St-Penn Station",
          "lat": 40.750373,
          "lon": -73.991057,
          "parent_station": 128
        },
        {
          "stop_id": 129,
          "name": "28 St",
          "lat": 40.747215,
          "lon": -73.993365,
          "parent_station": 129
        },
        {
          "stop_id": 130,
          "name": "23 St",
          "lat": 40.744081,
          "lon": -73.995657,
          "parent_station": 130
        },
        {
          "stop_id": 131,
          "name": "18 St",
          "lat": 40.74104,
          "lon": -73.997871,
          "parent_station": 131
        },
        {
          "stop_id": 132,
          "name": "14 St",
          "lat": 40.737826,
          "lon": -74.000201,
          "parent_station": 132
        },
        {
          "stop_id": 133,
          "name": "Christopher St-Sheridan Sq",
          "lat": 40.733422,
          "lon": -74.002906,
          "parent_station": 133
        },
        {
          "stop_id": 134,
          "name": "Houston St",
          "lat": 40.728251,
          "lon": -74.005367,
          "parent_station": 134
        },
        {
          "stop_id": 135,
          "name": "Canal St",
          "lat": 40.722854,
          "lon": -74.006277,
          "parent_station": 135
        },
        {
          "stop_id": 136,
          "name": "Franklin St",
          "lat": 40.719318,
          "lon": -74.006886,
          "parent_station": 136
        },
        {
          "stop_id": 137,
          "name": "Chambers St",
          "lat": 40.715478,
          "lon": -74.009266,
          "parent_station": 137
        },
        {
          "stop_id": 138,
          "name": "WTC Cortlandt",
          "lat": 40.711835,
          "lon": -74.012188,
          "parent_station": 138
        },
        {
          "stop_id": 139,
          "name": "Rector St",
          "lat": 40.707513,
          "lon": -74.013783,
          "parent_station": 139
        },
        {
          "stop_id": 142,
          "name": "South Ferry",
          "lat": 40.702068,
          "lon": -74.013664,
          "parent_station": 142
        }
    ],
   
  "A-FarRockaway": [
    {
      "stop_id": "A02",
      "name": "Inwood-207 St",
      "lat": 40.868072,
      "lon": -73.919899,
      "parent_station": "A02"
    },
    {
      "stop_id": "A03",
      "name": "Dyckman St",
      "lat": 40.865491,
      "lon": -73.927271,
      "parent_station": "A03"
    },
    {
      "stop_id": "A05",
      "name": "190 St",
      "lat": 40.859022,
      "lon": -73.93418,
      "parent_station": "A05"
    },
    {
      "stop_id": "A06",
      "name": "181 St",
      "lat": 40.851695,
      "lon": -73.937969,
      "parent_station": "A06"
    },
    {
      "stop_id": "A07",
      "name": "175 St",
      "lat": 40.847391,
      "lon": -73.939704,
      "parent_station": "A07"
    },
    {
      "stop_id": "A09",
      "name": "168 St",
      "lat": 40.840719,
      "lon": -73.939561,
      "parent_station": "112"
    },
    {
      "stop_id": "A12",
      "name": "145 St",
      "lat": 40.824783,
      "lon": -73.944216,
      "parent_station": "A12"
    },
    {
      "stop_id": "A15",
      "name": "125 St",
      "lat": 40.811109,
      "lon": -73.952343,
      "parent_station": "A15"
    },
    {
      "stop_id": "A24",
      "name": "59 St-Columbus Circle",
      "lat": 40.768296,
      "lon": -73.981736,
      "parent_station": "125"
    },
    {
      "stop_id": "A27",
      "name": "42 St-Port Authority Bus Terminal",
      "lat": 40.757308,
      "lon": -73.989735,
      "parent_station": "127"
    },
    {
      "stop_id": "A28",
      "name": "34 St-Penn Station",
      "lat": 40.752287,
      "lon": -73.993391,
      "parent_station": "A28"
    },
    {
      "stop_id": "A31",
      "name": "14 St",
      "lat": 40.740893,
      "lon": -74.00169,
      "parent_station": "A31"
    },
    {
      "stop_id": "A32",
      "name": "W 4 St-Wash Sq",
      "lat": 40.732338,
      "lon": -74.000495,
      "parent_station": "A32"
    },
    {
      "stop_id": "A34",
      "name": "Canal St",
      "lat": 40.720824,
      "lon": -74.005229,
      "parent_station": "A34"
    },
    {
      "stop_id": "A36",
      "name": "Chambers St",
      "lat": 40.714111,
      "lon": -74.008585,
      "parent_station": "228"
    },
    {
      "stop_id": "A38",
      "name": "Fulton St",
      "lat": 40.710197,
      "lon": -74.007691,
      "parent_station": "229"
    },
    {
      "stop_id": "A40",
      "name": "High St",
      "lat": 40.699337,
      "lon": -73.990531,
      "parent_station": "A40"
    },
    {
      "stop_id": "A41",
      "name": "Jay St-MetroTech",
      "lat": 40.692338,
      "lon": -73.987342,
      "parent_station": "A41"
    },
    {
      "stop_id": "A42",
      "name": "Hoyt-Schermerhorn Sts",
      "lat": 40.688484,
      "lon": -73.985001,
      "parent_station": "A42"
    },
    {
      "stop_id": "A46",
      "name": "Nostrand Av",
      "lat": 40.680438,
      "lon": -73.950426,
      "parent_station": "A46"
    },
    {
      "stop_id": "A48",
      "name": "Utica Av",
      "lat": 40.679364,
      "lon": -73.930729,
      "parent_station": "A48"
    },
    {
      "stop_id": "A51",
      "name": "Broadway Junction",
      "lat": 40.678334,
      "lon": -73.905316,
      "parent_station": "A51"
    },
    {
      "stop_id": "A55",
      "name": "Euclid Av",
      "lat": 40.675377,
      "lon": -73.872106,
      "parent_station": "A55"
    },
    {
      "stop_id": "A57",
      "name": "Grant Av",
      "lat": 40.677044,
      "lon": -73.86505,
      "parent_station": "A57"
    },
    {
      "stop_id": "A59",
      "name": "80 St",
      "lat": 40.679371,
      "lon": -73.858992,
      "parent_station": "A59"
    },
    {
      "stop_id": "A60",
      "name": "88 St",
      "lat": 40.679843,
      "lon": -73.85147,
      "parent_station": "A60"
    },
    {
      "stop_id": "A61",
      "name": "Rockaway Blvd",
      "lat": 40.680429,
      "lon": -73.843853,
      "parent_station": "A61"
    },
    {
      "stop_id": "H01",
      "name": "Aqueduct Racetrack",
      "lat": 40.668234,
      "lon": -73.834058,
      "parent_station": "H01"
    },
    {
      "stop_id": "H02",
      "name": "Aqueduct-N Conduit Av",
      "lat": 40.668234,
      "lon": -73.834058,
      "parent_station": "H02"
    },
    {
      "stop_id": "H03",
      "name": "Howard Beach-JFK Airport",
      "lat": 40.660476,
      "lon": -73.830301,
      "parent_station": "H03"
    },
    {
      "stop_id": "H04",
      "name": "Broad Channel",
      "lat": 40.608382,
      "lon": -73.815925,
      "parent_station": "H04"
    },
    {
      "stop_id": "H06",
      "name": "Beach 67 St",
      "lat": 40.590927,
      "lon": -73.796924,
      "parent_station": "H06"
    },
    {
      "stop_id": "H07",
      "name": "Beach 60 St",
      "lat": 40.592374,
      "lon": -73.788522,
      "parent_station": "H07"
    },
    {
      "stop_id": "H08",
      "name": "Beach 44 St",
      "lat": 40.592943,
      "lon": -73.776013,
      "parent_station": "H08"
    },
    {
      "stop_id": "H09",
      "name": "Beach 36 St",
      "lat": 40.595398,
      "lon": -73.768175,
      "parent_station": "H09"
    },
    {
      "stop_id": "H10",
      "name": "Beach 25 St",
      "lat": 40.600066,
      "lon": -73.761353,
      "parent_station": "H10"
    },
    {
      "stop_id": "H11",
      "name": "Far Rockaway-Mott Av",
      "lat": 40.603995,
      "lon": -73.755405,
      "parent_station": "H11"
    }
  ],
  "A-lefferts": [
    {
      "stop_id": "A02",
      "name": "Inwood-207 St",
      "lat": 40.868072,
      "lon": -73.919899,
      "parent_station": "A02"
    },
    {
      "stop_id": "A03",
      "name": "Dyckman St",
      "lat": 40.865491,
      "lon": -73.927271,
      "parent_station": "A03"
    },
    {
      "stop_id": "A05",
      "name": "190 St",
      "lat": 40.859022,
      "lon": -73.93418,
      "parent_station": "A05"
    },
    {
      "stop_id": "A06",
      "name": "181 St",
      "lat": 40.851695,
      "lon": -73.937969,
      "parent_station": "A06"
    },
    {
      "stop_id": "A07",
      "name": "175 St",
      "lat": 40.847391,
      "lon": -73.939704,
      "parent_station": "A07"
    },
    {
      "stop_id": "A09",
      "name": "168 St",
      "lat": 40.840719,
      "lon": -73.939561,
      "parent_station": "112"
    },
    {
      "stop_id": "A12",
      "name": "145 St",
      "lat": 40.824783,
      "lon": -73.944216,
      "parent_station": "A12"
    },
    {
      "stop_id": "A15",
      "name": "125 St",
      "lat": 40.811109,
      "lon": -73.952343,
      "parent_station": "A15"
    },
    {
      "stop_id": "A24",
      "name": "59 St-Columbus Circle",
      "lat": 40.768296,
      "lon": -73.981736,
      "parent_station": "125"
    },
    {
      "stop_id": "A27",
      "name": "42 St-Port Authority Bus Terminal",
      "lat": 40.757308,
      "lon": -73.989735,
      "parent_station": "127"
    },
    {
      "stop_id": "A28",
      "name": "34 St-Penn Station",
      "lat": 40.752287,
      "lon": -73.993391,
      "parent_station": "A28"
    },
    {
      "stop_id": "A31",
      "name": "14 St",
      "lat": 40.740893,
      "lon": -74.00169,
      "parent_station": "A31"
    },
    {
      "stop_id": "A32",
      "name": "W 4 St-Wash Sq",
      "lat": 40.732338,
      "lon": -74.000495,
      "parent_station": "A32"
    },
    {
      "stop_id": "A34",
      "name": "Canal St",
      "lat": 40.720824,
      "lon": -74.005229,
      "parent_station": "A34"
    },
    {
      "stop_id": "A36",
      "name": "Chambers St",
      "lat": 40.714111,
      "lon": -74.008585,
      "parent_station": "228"
    },
    {
      "stop_id": "A38",
      "name": "Fulton St",
      "lat": 40.710197,
      "lon": -74.007691,
      "parent_station": "229"
    },
    {
      "stop_id": "A40",
      "name": "High St",
      "lat": 40.699337,
      "lon": -73.990531,
      "parent_station": "A40"
    },
    {
      "stop_id": "A41",
      "name": "Jay St-MetroTech",
      "lat": 40.692338,
      "lon": -73.987342,
      "parent_station": "A41"
    },
    {
      "stop_id": "A42",
      "name": "Hoyt-Schermerhorn Sts",
      "lat": 40.688484,
      "lon": -73.985001,
      "parent_station": "A42"
    },
    {
      "stop_id": "A46",
      "name": "Nostrand Av",
      "lat": 40.680438,
      "lon": -73.950426,
      "parent_station": "A46"
    },
    {
      "stop_id": "A48",
      "name": "Utica Av",
      "lat": 40.679364,
      "lon": -73.930729,
      "parent_station": "A48"
    },
    {
      "stop_id": "A51",
      "name": "Broadway Junction",
      "lat": 40.678334,
      "lon": -73.905316,
      "parent_station": "A51"
    },
    {
      "stop_id": "A55",
      "name": "Euclid Av",
      "lat": 40.675377,
      "lon": -73.872106,
      "parent_station": "A55"
    },
    {
      "stop_id": "A57",
      "name": "Grant Av",
      "lat": 40.677044,
      "lon": -73.86505,
      "parent_station": "A57"
    },
    {
      "stop_id": "A59",
      "name": "80 St",
      "lat": 40.679371,
      "lon": -73.858992,
      "parent_station": "A59"
    },
    {
      "stop_id": "A60",
      "name": "88 St",
      "lat": 40.679843,
      "lon": -73.85147,
      "parent_station": "A60"
    },
    {
      "stop_id": "A61",
      "name": "Rockaway Blvd",
      "lat": 40.680429,
      "lon": -73.843853,
      "parent_station": "A61"
    },
    {
      "stop_id": "A63",
      "name": "104 St",
      "lat": 40.681711,
      "lon": -73.837683,
      "parent_station": "A63"
    },
    {
      "stop_id": "A64",
      "name": "111 St",
      "lat": 40.684331,
      "lon": -73.832163,
      "parent_station": "A64"
    },
    {
      "stop_id": "A65",
      "name": "Ozone Park-Lefferts Blvd",
      "lat": 40.685951,
      "lon": -73.825798,
      "parent_station": "A65"
    }
    
  ]
    }